City_ID,City,Lat,Lng,Max Temp,Humidity,Cloudiness,Wind Speed,Country,Date
0,san luis de la loma,17.2706,-100.8939,83.8,69,97,6.31,MX,1731519942
1,burao,9.5221,45.5336,68.29,43,0,8.9,SO,1731520121
2,malango,-2.9627,119.9001,64.94,97,34,2.86,ID,1731520122
3,adamstown,-25.066,-130.1015,71.26,78,100,8.68,PN,1731519841
4,udachny,66.4167,112.4,-19.88,99,63,5.91,RU,1731520124
5,bethel,41.3712,-73.414,47.73,39,0,10.36,US,1731519943
6,bac lieu,9.285,105.7244,79.3,83,11,6.17,VN,1731519943
7,blackmans bay,-43.0167,147.3167,48.33,78,99,1.99,AU,1731520127
8,sal rei,16.1833,-22.9167,82.6,65,75,16.11,CV,1731520128
9,bredasdorp,-34.5322,20.0403,61.16,66,45,12.82,ZA,1731519943
10,saint-pierre,-21.3393,55.4781,76.68,73,40,1.14,RE,1731520132
11,atafu village,-8.5421,-172.5159,83.43,76,8,14.5,TK,1731520133
12,waitangi,-43.9535,-176.5597,51.82,74,0,1.99,NZ,1731520134
13,sydney,-33.8679,151.2073,65.34,88,75,9.22,AU,1731520028
14,kingscliff,-28.2667,153.5667,67.8,94,43,3.44,AU,1731520136
15,port-aux-francais,-49.35,70.2167,39.09,86,100,27.51,TF,1731520137
16,salinas,36.6777,-121.6555,57.83,77,0,0.0,US,1731519944
17,al kharijah,25.4514,30.5464,67.42,45,54,8.32,EG,1731520140
18,iqaluit,63.7506,-68.5145,13.73,66,75,3.44,CA,1731520141
19,mount pearl,47.5166,-52.7813,40.14,95,100,25.32,CA,1731520001
20,ta`u,-14.2336,-169.5144,80.26,82,84,22.88,AS,1731520143
21,boyolangu,-8.1181,111.8935,77.05,93,91,2.28,ID,1731520144
22,san antonio de pale,-1.4014,5.6325,77.29,88,100,12.17,GQ,1731520145
23,arkhangel'sk,64.5401,40.5433,33.91,86,75,11.18,RU,1731520146
24,vilyuchinsk,52.9306,158.4028,8.87,84,8,10.27,RU,1731520336
25,invercargill,-46.4,168.35,45.01,97,90,1.99,NZ,1731520336
26,nantucket,41.2835,-70.0995,42.91,56,100,21.85,US,1731520207
27,crane,31.3974,-102.3501,68.79,16,0,17.38,US,1731520337
28,tidjikja,18.5564,-11.4271,83.53,12,0,4.83,MR,1731520337
29,stanley,54.868,-1.6985,49.53,92,75,8.05,GB,1731520337
30,constantia,44.1833,28.65,43.7,77,100,9.78,RO,1731520337
31,berezovyy,51.6667,135.7,19.51,56,96,4.85,RU,1731520337
32,porto novo,6.4965,2.6036,85.82,85,95,6.35,BJ,1731520134
33,whitehorse,60.7161,-135.0538,21.97,85,100,4.61,CA,1731520337
34,puerto ayora,-0.7393,-90.3518,74.55,81,37,8.01,EC,1731520337
35,sitka,57.0531,-135.33,37.29,87,40,0.0,US,1731520337
36,mahajanga,-15.7167,46.3167,82.42,78,20,9.22,MG,1731520338
37,yuzhno-kurilsk,44.0306,145.8556,36.46,67,43,10.89,RU,1731520338
38,nuuk,64.1835,-51.7216,27.21,74,20,17.27,GL,1731520256
39,viedma,-40.8135,-62.9967,80.08,23,54,14.72,AR,1731520269
40,rabaul,-4.1967,152.1721,78.03,89,100,19.01,PG,1731520339
41,simeonovgrad,42.0333,25.8333,48.51,86,100,4.14,BG,1731520339
42,edinburgh of the seven seas,-37.0676,-12.3116,61.38,90,20,23.2,SH,1731520339
43,margaret river,-33.95,115.0667,55.08,95,69,9.86,AU,1731520339
44,hermanus,-34.4187,19.2345,61.81,70,1,18.28,ZA,1731520340
45,trairi,-3.2778,-39.2689,85.08,57,67,14.2,BR,1731520254
46,khorinsk,52.1657,109.7726,0.18,95,7,1.83,RU,1731520340
47,petropavlovsk-kamchatsky,53.0452,158.6483,7.39,66,0,11.18,RU,1731520340
48,tyukhtet,56.5389,89.3011,13.35,80,98,7.14,RU,1731520340
49,nar'yan-mar,67.6713,53.087,30.16,98,100,10.09,RU,1731520340
50,broome,42.2506,-75.833,46.62,48,0,5.75,US,1731520341
51,zhanaozen,43.3,52.8,36.18,39,3,9.35,KZ,1731520341
52,isafjordur,66.0755,-23.124,44.64,53,40,10.36,IS,1731520341
53,kendari,-3.945,122.4989,75.18,95,15,1.63,ID,1731520341
54,manokwari,-0.8667,134.0833,78.44,81,67,3.24,ID,1731520341
55,talnakh,69.4865,88.3972,-9.15,99,100,3.33,RU,1731520342
56,taksimo,56.3444,114.8794,0.81,91,60,3.44,RU,1731520342
57,isola di capo rizzuto,38.96,17.0933,59.74,77,0,6.91,IT,1731520342
58,nago,26.5881,127.9761,75.06,89,90,8.19,JP,1731520342
59,ilulissat,69.2167,-51.1,32.02,74,75,16.11,GL,1731520342
60,douglas,41.3,-96.167,47.28,95,100,4.61,US,1731520145
61,utrik,11.2278,169.8474,82.49,74,19,13.82,MH,1731520342
62,aripuana,-9.1667,-60.6333,80.69,87,98,4.65,BR,1731520342
63,albany,42.6001,-73.9662,43.92,48,0,3.0,US,1731520256
64,kharp,66.8014,65.8081,-11.83,99,13,2.46,RU,1731520343
65,lata,40.1629,-8.3327,46.56,72,77,7.94,PT,1731520343
66,trujillo,-8.116,-79.03,67.96,77,20,11.5,PE,1731520191
67,garachico,28.7781,-17.7646,68.11,60,20,8.05,ES,1731520343
68,yellowknife,62.456,-114.3525,10.42,97,75,8.05,CA,1731520344
69,chudovo,59.1167,31.6833,39.54,80,100,8.57,RU,1731520344
70,puerto natales,-51.7236,-72.4875,55.85,38,40,34.52,CL,1731520344
71,keflavik,64.0049,-22.5624,45.03,76,100,8.05,IS,1731520346
72,kapa'a,22.0752,-159.319,75.52,90,20,18.41,US,1731520346
73,weno,7.4515,151.8468,82.42,76,76,8.86,FM,1731520346
74,ushuaia,-54.8,-68.3,51.46,43,0,5.75,AR,1731520346
75,wailea,19.8858,-155.123,71.11,97,100,9.22,US,1731520346
76,morrilton,35.1509,-92.744,58.68,61,95,4.25,US,1731520346
77,mugia,43.1041,-9.2179,55.9,69,39,27.81,ES,1731520346
78,papatowai,-46.5619,169.4708,49.28,89,100,2.98,NZ,1731520346
79,jaru,-10.4389,-62.4664,82.83,65,100,7.0,BR,1731520347
80,khorixas,-20.3667,14.9667,82.63,22,81,13.24,,1731520347
81,sao tome,0.3365,6.7273,80.89,81,89,5.93,ST,1731520347
82,hovd,48.0056,91.6419,24.01,46,48,4.45,MN,1731520347
83,la sarre,48.8002,-79.1996,36.07,54,44,9.84,CA,1731520347
84,tazovsky,67.4667,78.7,-18.29,100,92,4.54,RU,1731520347
85,susuman,62.7833,148.1667,-14.03,99,100,2.42,RU,1731520347
86,thompson,55.7435,-97.8558,33.96,80,20,10.36,CA,1731520347
87,tiksi,71.6872,128.8694,-13.56,100,89,3.8,RU,1731520347
88,yantzaza,-3.8278,-78.7594,94.69,24,47,2.66,EC,1731520347
89,grytviken,-54.2811,-36.5092,28.98,80,71,3.74,GS,1731520348
90,as saffaniyah,27.9708,48.73,75.24,56,60,10.69,SA,1731520348
91,trinity beach,-16.7888,145.6968,75.09,83,20,0.0,AU,1731520348
92,west island,-12.1568,96.8225,78.78,83,40,11.5,CC,1731520348
93,saipan,15.1355,145.701,81.3,87,40,12.66,MP,1731520348
94,wailua homesteads,22.0669,-159.378,74.19,90,20,18.41,US,1731520348
95,cockburn town,21.4612,-71.1419,82.17,79,60,12.71,TC,1731520236
96,namibe,-15.1961,12.1522,78.01,64,84,9.22,AO,1731520349
97,punta arenas,-53.15,-70.9167,55.51,44,40,24.16,CL,1731520311
98,port mathurin,-19.6833,63.4167,76.53,83,13,16.55,MU,1731520350
99,barrouallie,13.2333,-61.2667,80.22,83,75,6.91,VC,1731520350
100,vila franca do campo,37.7167,-25.4333,66.61,99,65,6.96,PT,1731520350
101,karasburg,-28.0167,18.75,78.93,8,84,10.65,,1731520351
102,nha trang,12.25,109.1833,77.0,93,6,4.74,VN,1731520351
103,cuamba,-14.8031,36.5372,83.68,42,97,4.92,MZ,1731520351
104,ribeira grande,38.5167,-28.7,70.2,73,20,8.01,PT,1731520351
105,broken hill,-31.95,141.4333,56.39,57,0,14.34,AU,1731520351
106,argo,37.6333,22.7333,59.9,91,26,3.6,GR,1731520351
107,port blair,11.6667,92.75,82.44,83,40,2.3,IN,1731520351
108,badger,64.8,-147.5333,-0.18,78,75,3.44,US,1731520351
109,saurimo,-9.6608,20.3916,73.22,66,85,0.69,AO,1731520351
110,macenta,8.5435,-9.471,77.29,70,99,1.63,GN,1731520352
111,east london,-33.0153,27.9116,63.54,67,75,8.05,ZA,1731520352
112,melekeok village,7.4957,134.6367,79.36,89,75,3.44,PW,1731520352
113,okhotsk,59.3833,143.3,3.43,71,10,16.24,RU,1731520352
114,qaqortoq,60.7167,-46.0333,31.06,99,100,9.1,GL,1731520352
115,acarau,-2.8856,-40.12,86.38,60,41,18.43,BR,1731520352
116,salekhard,66.53,66.6019,-20.97,100,53,1.32,RU,1731520352
117,ancud,-41.8697,-73.8203,54.48,90,100,7.23,CL,1731520352
118,lompoc,34.6391,-120.4579,63.14,38,20,5.75,US,1731520352
119,praya,14.9215,-23.5087,84.74,39,20,12.66,CV,1731520256
120,jamestown,42.097,-79.2353,49.01,38,0,8.99,US,1731520079
121,gadzhiyevo,69.2551,33.3362,38.43,91,99,16.15,RU,1731520353
122,rio de janeiro,-22.9028,-43.2075,71.6,85,100,14.97,BR,1731520274
123,hawaiian paradise park,19.5933,-154.9731,71.11,98,100,9.22,US,1731520353
124,bouna,9.2667,-3.0,86.02,32,100,2.68,CI,1731520353
125,baganga,7.5739,126.56,77.5,88,84,3.96,PH,1731520353
126,afaahiti,-17.75,-149.2833,74.08,74,100,15.77,PF,1731520353
127,longyearbyen,78.2186,15.6401,37.24,75,40,20.71,SJ,1731520353
128,fortuna,40.5982,-124.1573,54.36,94,100,14.97,US,1731520354
129,coquimbo,-29.9533,-71.3436,66.97,63,100,9.22,CL,1731520257
130,ust-nera,64.5667,143.2,-24.07,96,88,0.94,RU,1731520355
131,praia da vitoria,38.7333,-27.0667,68.25,77,75,14.12,PT,1731520355
132,itoman,26.1247,127.6694,78.82,83,97,9.22,JP,1731520355
133,ponta delgada,37.7333,-25.6667,66.92,77,75,6.91,PT,1731520355
134,kattivakkam,13.2167,80.3167,80.96,99,98,6.93,IN,1731520356
135,westerland,54.9079,8.3033,51.82,100,100,14.97,DE,1731520356
136,georgetown,5.4112,100.3354,82.33,82,20,5.01,MY,1731520268
137,dunedin,-45.8742,170.5036,52.81,98,100,3.69,NZ,1731520356
138,polyarnyy,69.1989,33.4478,38.52,91,99,15.5,RU,1731520356
139,severo-yeniseyskiy,60.3725,93.0408,3.97,90,100,9.51,RU,1731520356
140,iskateley,67.6803,53.1512,30.11,98,100,10.02,RU,1731520356
141,uzhur,55.3036,89.8339,13.51,69,99,6.6,RU,1731520356
142,lihue,21.9789,-159.3672,74.79,64,20,18.41,US,1731520356
143,kaa-khem,51.6833,94.7333,17.4,33,92,3.31,RU,1731520358
144,lycksele,64.5954,18.6735,40.87,70,75,3.44,SE,1731520359
145,turuntayevo,52.2,107.6167,5.29,94,13,1.92,RU,1731520359
146,hithadhoo,-0.6,73.0833,82.92,75,97,12.88,MV,1731520359
147,punta del este,-34.9667,-54.95,69.91,67,20,12.66,UY,1731520359
148,bilibino,68.0546,166.4372,-21.08,100,92,1.41,RU,1731520359
149,sussex,41.1834,-74.6663,48.36,40,0,11.5,US,1731520287
150,linxia chengguanzhen,35.6003,103.2064,40.98,74,6,4.03,CN,1731520360
151,xilin hot,43.9667,116.0333,37.54,71,86,6.76,CN,1731520360
152,suwayr,30.1171,40.3893,64.63,52,60,7.0,SA,1731520360
153,queenstown,-31.8976,26.8753,54.46,82,64,9.73,ZA,1731520360
154,tlaltenango de sanchez roman,21.7833,-103.3167,79.18,32,60,4.14,MX,1731520360
155,beykonak,36.3257,30.303,69.93,48,5,5.46,TR,1731520360
156,erenhot,43.6475,111.9767,40.28,67,7,7.45,CN,1731520361
157,korce,40.6186,20.7808,44.67,98,95,3.2,AL,1731520362
158,heiloo,52.6,4.7,53.1,77,91,10.02,NL,1731520362
159,kill devil hills,36.0307,-75.676,55.98,60,100,10.36,US,1731520362
160,savastepe,39.3832,27.6561,54.1,91,100,4.29,TR,1731520362
161,humberston,53.5304,-0.0246,48.4,87,20,5.75,GB,1731520362
162,altai,46.3722,96.2583,23.52,57,22,12.24,MN,1731520362
163,karratha,-20.7377,116.8463,85.78,36,28,16.37,AU,1731520362
164,fale old settlement,-9.3852,-171.2468,83.1,78,8,17.09,TK,1731520362
165,bodo,67.28,14.405,42.84,85,75,34.52,NO,1731520363
166,luwuk,-0.9516,122.7875,73.06,84,20,2.71,ID,1731520363
167,tonghae,37.5439,129.1069,52.39,79,15,5.37,KR,1731520363
168,rongelap,11.1635,166.8941,83.46,67,52,17.98,MH,1731520363
169,chandler,33.3062,-111.8412,70.59,23,0,1.99,US,1731520355
170,belgrade,44.804,20.4651,39.33,81,75,8.05,RS,1731520182
171,bokakhat,26.6333,93.6,66.09,89,0,2.26,IN,1731520364
172,sao joao da barra,-21.6403,-41.0511,77.09,83,100,14.52,BR,1731520078
173,bekovo,52.4663,43.712,30.06,85,100,7.78,RU,1731520365
174,lebu,-37.6167,-73.65,60.06,68,52,17.96,CL,1731520365
175,college,64.8569,-147.8028,-0.09,78,75,3.44,US,1731520365
176,shambu,9.5667,37.1,51.57,88,44,1.16,ET,1731520365
177,vadso,70.0744,29.7487,39.36,81,100,10.36,NO,1731520365
178,xining,36.6167,101.7667,37.9,86,16,1.43,CN,1731520365
179,enriquillo,17.9,-71.2333,83.01,73,92,5.48,DO,1731520365
180,mejit,10.2753,170.8646,82.81,71,87,15.59,MH,1731520365
181,avarua,-21.2078,-159.775,73.45,73,100,5.75,CK,1731520366
182,puerto rosario,-24.45,-57.0833,90.12,14,0,7.2,PY,1731520366
183,ola,59.5833,151.2833,2.84,77,67,12.57,RU,1731520366
184,kruisfontein,-34.0033,24.7314,56.68,79,82,5.35,ZA,1731520366
185,lima,-12.0432,-77.0282,70.05,64,40,14.97,PE,1731520301
186,tabou,4.423,-7.3528,79.99,80,20,4.72,CI,1731520366
187,port shepstone,-30.7414,30.455,67.26,78,66,21.77,ZA,1731520366
188,teluk nibung,3.001,99.8164,75.54,96,100,4.41,ID,1731520366
189,mount gambier,-37.8333,140.7667,43.43,88,36,2.73,AU,1731520366
190,dakhla,23.6848,-15.958,69.82,83,0,18.41,EH,1731520367
191,uturoa,-16.7333,-151.4333,79.02,74,77,15.35,PF,1731520367
192,kapuskasing,49.4169,-82.4331,32.09,93,100,13.8,CA,1731520367
193,kristiansund,63.1115,7.732,48.13,81,75,27.63,NO,1731520367
194,sanctuary point,-35.1114,150.629,60.44,91,71,9.33,AU,1731520367
195,haiku-pauwela,20.9219,-156.3051,73.26,90,40,17.27,US,1731520367
196,hami,42.8,93.45,46.92,56,46,4.63,CN,1731520367
197,selfoss,63.9331,-20.9971,43.05,81,93,7.45,IS,1731520367
198,onega,63.9061,38.1404,35.87,93,100,15.5,RU,1731520367
199,sao vicente,-23.9631,-46.3919,69.94,77,100,3.44,BR,1731520367
200,holualoa,19.6228,-155.9522,69.84,73,40,5.75,US,1731520369
201,chernyshevskiy,63.0128,112.4714,0.7,96,99,5.84,RU,1731520369
202,pechora,65.1472,57.2244,19.9,94,100,11.21,RU,1731520369
203,dryden,49.7833,-92.7503,37.69,93,100,10.36,CA,1731520369
204,fort mcmurray,56.7268,-111.381,18.99,79,100,5.75,CA,1731520369
205,zaozersk,69.4005,32.4476,36.37,88,98,18.21,RU,1731520369
206,arauca,7.0847,-70.7591,89.56,62,40,6.91,CO,1731520369
207,olonkinbyen,70.9221,-8.7187,26.8,58,47,34.94,SJ,1731520369
208,whakatane,-37.9585,176.9854,63.52,99,100,5.99,NZ,1731520371
209,nova sintra,14.8667,-24.7167,78.49,71,72,20.18,CV,1731520371
210,happy valley-goose bay,53.3168,-60.3315,26.91,50,20,10.36,CA,1731520371
211,anadyr,64.75,177.4833,27.1,79,100,31.0,RU,1731520371
212,olinda,-8.0089,-34.8553,83.93,65,20,13.8,BR,1731520371
213,darwin,-12.4611,130.8418,78.78,89,75,5.75,AU,1731520163
214,mombetsu,44.3525,143.3525,32.59,83,48,5.75,JP,1731520371
215,navirai,-23.065,-54.1906,86.56,19,0,7.38,BR,1731520371
216,port augusta,-32.5,137.7667,58.78,77,0,8.5,AU,1731520373
217,ghanzi,-21.5667,21.7833,84.13,29,96,8.63,BW,1731520373
218,tysmenytsya,48.9022,24.8448,31.6,74,94,2.73,UA,1731520373
219,waingapu,-9.6567,120.2641,82.06,72,86,8.41,ID,1731520373
220,konarka,19.9,86.1167,76.06,65,2,6.2,IN,1731520373
221,ciudad hidalgo,19.6833,-100.5667,70.48,58,39,4.88,MX,1731520373
222,yelizovo,53.1873,158.3805,8.74,66,0,11.18,RU,1731520373
223,la passe,45.5549,-0.8967,47.16,66,27,19.1,FR,1731520373
224,wick,58.4333,-3.0833,48.25,87,20,12.66,GB,1731520373
225,xindian,36.7975,118.2944,59.11,81,100,4.14,CN,1731520374
226,hamilton,39.1834,-84.5333,58.89,58,0,6.91,US,1731520204
227,chonchi,-42.6128,-73.8092,63.12,83,99,1.61,CL,1731520374
228,kalmunai,7.4167,81.8167,80.22,83,99,4.25,LK,1731520374
229,gaiman,-43.2897,-65.4929,82.6,19,23,21.36,AR,1731520374
230,quellon,-43.1167,-73.6167,54.66,90,100,7.78,CL,1731520324
231,aasiaat,68.7098,-52.8699,26.92,92,100,27.51,GL,1731520374
232,lazaro cardenas,17.9583,-102.2,83.86,68,51,6.17,MX,1731520374
233,kodiak,57.79,-152.4072,35.11,44,0,10.36,US,1731520374
234,masterton,-40.9597,175.6575,56.19,88,100,4.94,NZ,1731520375
235,gummi,12.1436,5.1081,86.0,27,5,9.53,NG,1731520375
236,st. john's,47.5649,-52.7093,39.97,97,100,25.32,CA,1731520235
237,khovd,48.0056,91.6419,24.01,46,48,4.45,MN,1731520347
238,waspan,14.7419,-83.9717,90.07,54,44,5.55,NI,1731520375
239,chaltyr,47.2848,39.4823,38.79,76,97,7.74,RU,1731520375
240,al fashn,28.8243,30.8995,70.32,57,98,14.76,EG,1731520375
241,vernon,50.2581,-119.2691,44.76,85,100,4.61,CA,1731520375
242,howrah,22.5892,88.3103,77.0,78,20,4.61,IN,1731520375
243,tarko-sale,64.9225,77.785,-16.71,100,95,5.28,RU,1731520376
244,arraial do cabo,-22.9661,-42.0278,71.46,100,100,5.75,BR,1731520376
245,dobroye,52.8678,39.8109,29.44,89,53,5.79,RU,1731520376
246,inari,68.906,27.0288,36.48,76,38,17.65,FI,1731520376
247,al jawf,29.5,38.75,65.93,46,37,8.3,SA,1731520376
248,tura,25.5198,90.2201,64.96,77,0,4.18,IN,1731520376
249,kovdor,67.5662,30.4758,34.2,87,51,12.8,RU,1731520376
250,christchurch,-43.5333,172.6333,55.6,92,75,6.91,NZ,1731520323
251,colombo,6.9319,79.8478,76.95,83,89,4.45,LK,1731520376
252,bayganin,48.6947,55.8742,28.2,70,99,9.44,KZ,1731520377
253,ulladulla,-35.35,150.4667,61.14,85,68,11.25,AU,1731520377
254,vorkuta,67.5,64.0,-14.48,100,79,5.14,RU,1731520377
255,goianesia,-15.3175,-49.1175,75.27,87,99,5.03,BR,1731520377
256,brookings,44.3114,-96.7984,44.11,100,100,3.44,US,1731520377
257,ryotsu-minato,38.0833,138.4333,49.82,67,88,5.55,JP,1731520377
258,ketchikan,55.3422,-131.6461,44.58,87,100,3.44,US,1731520377
259,puerto baquerizo moreno,-0.9,-89.6,77.99,69,40,14.97,EC,1731520377
260,colusa,39.2143,-122.0094,55.11,63,100,18.61,US,1731520377
261,nikolayevsk-on-amure,53.1406,140.73,16.39,82,63,3.49,RU,1731520377
262,healesville,-37.65,145.5167,49.96,91,91,5.06,AU,1731520378
263,merizo village,13.2658,144.6691,81.16,89,97,14.5,GU,1731520378
264,akdepe,42.0551,59.3788,35.46,50,2,5.17,TM,1731520378
265,pleiku,13.9833,108.0,65.86,97,36,3.85,VN,1731520378
266,flying fish cove,-10.4217,105.6791,80.28,94,100,9.22,CX,1731520378
267,fisterra,42.9049,-9.2629,56.84,65,23,26.26,ES,1731520378
268,korhogo,9.45,-5.6333,82.13,46,97,2.51,CI,1731520378
269,tezu,27.9167,96.1667,65.82,50,1,4.27,IN,1731520378
270,alappuzha,9.49,76.3264,80.26,82,100,5.7,IN,1731520378
271,sinop,41.7711,34.8709,48.4,95,95,2.21,TR,1731520379
272,taoudenni,22.6783,-3.9836,82.33,13,15,3.83,ML,1731520379
273,prince rupert,54.3161,-130.3201,47.89,89,100,8.05,CA,1731520379
274,mata-utu,-13.2816,-176.1745,81.68,79,78,20.89,WF,1731520379
275,aktyubinskiy,54.8137,52.8056,26.44,96,98,9.4,RU,1731520380
276,kannur,11.8675,75.3576,80.1,82,99,2.64,IN,1731520380
277,san borja,-14.8167,-66.85,66.88,81,100,2.59,BO,1731520380
278,port elizabeth,-33.918,25.5701,63.32,76,75,9.22,ZA,1731520352
279,puerto leguizamo,-0.1934,-74.7819,84.42,66,89,4.29,CO,1731520381
280,alotau,-10.3069,150.4462,76.3,95,82,2.66,PG,1731520381
281,newman,37.3138,-121.0208,58.5,52,59,6.53,US,1731520381
282,nuku'alofa,-21.1333,-175.2,73.74,94,75,6.91,TO,1731520381
283,wucheng,29.6008,118.175,62.53,92,0,1.68,CN,1731520381
284,puerto ayacucho,5.6639,-67.6236,93.42,50,76,1.14,VE,1731520383
285,luderitz,-26.6481,15.1594,70.9,49,63,22.73,,1731520212
286,cruzeiro do sul,-29.5128,-51.9853,79.52,35,0,5.61,BR,1731520384
287,khor,47.8861,134.9464,24.8,67,82,5.5,RU,1731520384
288,cabedelo,-6.9811,-34.8339,84.87,64,23,14.61,BR,1731520384
289,ravar,31.2656,56.8055,56.1,58,16,9.53,IR,1731520384
290,alaghsas,17.0187,8.0168,85.89,15,0,13.8,NE,1731520384
291,at taj,24.2049,23.2857,67.19,29,9,11.18,LY,1731520384
292,island harbour,50.724,-1.2758,50.07,67,85,6.55,GB,1731520386
293,kargasok,59.0556,80.8572,11.01,95,97,3.78,RU,1731520386
294,levuka,50.1834,-105.4011,38.93,60,40,5.75,CA,1731520386
295,mayqayyng,51.4625,75.7986,18.84,90,100,16.75,KZ,1731520386
296,hosdurga,13.7981,76.2861,69.94,88,96,6.02,IN,1731520386
297,pisco,-13.7,-76.2167,69.03,83,100,9.22,PE,1731520386
298,touros,-5.1989,-35.4608,83.01,60,4,15.99,BR,1731520386
299,oriximina,-1.7656,-55.8661,91.51,48,57,1.97,BR,1731520386
300,palikir - national government center,6.9248,158.1611,77.74,94,100,0.0,FM,1731520386
301,port lincoln,-34.7333,135.8667,56.68,66,65,8.66,AU,1731520387
302,tateyama,34.9833,139.8667,62.04,70,51,10.96,JP,1731520387
303,nenagh,52.8619,-8.1967,45.66,95,90,3.49,IE,1731520387
304,fort st. john,56.2499,-120.8529,22.89,93,100,9.22,CA,1731520387
305,chibougamau,49.9168,-74.3659,28.02,64,0,10.36,CA,1731520387
306,montrose,38.4166,-108.2673,32.72,41,8,3.58,US,1731520387
307,nemuro,43.3236,145.575,38.28,63,6,11.99,JP,1731520387
308,dzuunharaa,48.8523,106.4579,22.03,82,88,1.16,MN,1731520387
309,yaren,-0.5472,166.916,82.09,70,88,13.62,NR,1731520387
310,alofi,-19.0595,-169.9187,73.29,88,96,8.05,NU,1731520387
311,castillos,-34.1667,-53.8333,70.34,45,16,13.58,UY,1731520388
312,tete,-16.1564,33.5867,83.64,61,59,1.16,MZ,1731520388
313,monett,36.929,-93.9277,55.9,88,100,9.22,US,1731520388
314,poteau,35.0537,-94.6236,69.58,60,75,12.66,US,1731520388
315,san patricio,28.017,-97.5169,84.15,50,8,2.08,US,1731520388
316,batavia,41.85,-88.3126,50.52,61,0,13.8,US,1731520388
317,charcas,23.1333,-101.1167,73.18,22,15,7.78,MX,1731520388
318,pangody,65.85,74.4859,-6.56,99,93,7.23,RU,1731520388
319,burang,30.25,81.1667,29.07,60,9,4.92,CN,1731520390
320,bel ombre,-4.6167,55.4167,78.64,83,40,2.3,SC,1731520390
321,kolonia town,6.964,158.206,78.8,94,100,0.0,FM,1731520390
322,dauphin,51.1494,-100.0502,42.94,75,0,11.5,CA,1731520390
323,nebbi,2.4783,31.0889,69.06,79,56,5.73,UG,1731520390
324,timmins,48.4669,-81.3331,31.82,80,75,12.66,CA,1731520323
325,vallenar,-28.5708,-70.7581,80.96,27,1,12.06,CL,1731520390
326,yarkovo,57.4028,67.0786,4.69,96,22,3.33,RU,1731520390
327,pitimbu,-7.4706,-34.8086,80.94,63,16,12.95,BR,1731520390
328,sena madureira,-9.0656,-68.6569,85.35,58,100,5.84,BR,1731520391
329,saudarkrokur,65.7461,-19.6394,38.8,85,26,15.84,IS,1731520391
330,ibirite,-20.0219,-44.0589,74.16,73,90,4.68,BR,1731520391
331,ubinskoye,55.3068,79.6802,16.03,95,100,8.21,RU,1731520391
332,carrigaline,51.8117,-8.3986,47.61,87,40,8.05,IE,1731520391
333,amursk,50.2261,136.8994,22.28,75,92,11.18,RU,1731520391
334,sensuntepeque,13.8667,-88.6333,80.19,66,99,1.57,SV,1731520391
335,coron,11.9986,120.2043,76.77,86,100,3.02,PH,1731520391
336,bilari,28.6333,78.8,70.25,38,0,2.08,IN,1731520391
337,formosa do rio preto,-11.0483,-45.1931,86.97,52,41,3.78,BR,1731520391
338,auki,-8.7676,160.7034,77.09,85,99,3.27,SB,1731520392
339,ghat,24.9647,10.1728,72.88,12,57,4.7,LY,1731520392
340,codrington,-38.2667,141.9667,48.81,76,69,7.29,AU,1731520392
341,hammerfest,70.6634,23.6821,37.85,87,75,21.85,NO,1731520392
342,margate,51.3813,1.3862,49.69,84,92,7.67,GB,1731520392
343,tosya,41.0155,34.0401,46.15,65,63,2.39,TR,1731520392
344,novodvinsk,64.4165,40.8122,33.55,90,100,11.52,RU,1731520392
345,grand falls-windsor,48.9332,-55.6649,33.51,91,100,5.01,CA,1731520392
346,manado,1.487,124.8455,75.97,94,20,2.3,ID,1731520392
347,kudahuvadhoo,2.6708,72.8944,83.08,69,55,6.67,MV,1731520394
348,nagqu,31.5,92.0,24.42,29,58,0.72,CN,1731520394
349,seven pagodas,12.6264,80.1722,79.02,86,96,7.11,IN,1731520394
350,sanchursk,56.9413,47.2499,31.32,95,99,8.1,RU,1731520394
351,prado,-17.3411,-39.2208,81.72,73,41,18.07,BR,1731520394
352,esquel,-42.9,-71.3167,55.58,71,97,8.39,AR,1731520394
353,sumenep,-7.0167,113.8667,81.7,74,93,7.31,ID,1731520394
354,zav'yalovo,56.7847,53.3776,27.39,86,99,9.6,RU,1731520394
355,uray,60.1247,64.7758,8.17,84,87,6.15,RU,1731520395
356,kununurra,-15.7667,128.7333,80.58,74,75,1.14,AU,1731520395
357,anton lizardo,19.05,-95.9833,85.21,74,92,2.89,MX,1731520395
358,alesund,62.4723,6.1549,49.75,88,75,18.41,NO,1731520395
359,morondava,-20.2833,44.2833,81.18,72,39,15.46,MG,1731520395
360,ibotirama,-12.1853,-43.2206,80.13,68,95,2.93,BR,1731520395
361,cam ranh,11.9214,109.1591,76.96,94,20,3.44,VN,1731520395
362,hasaki,35.7333,140.8333,63.66,59,92,11.72,JP,1731520395
363,enewetak,11.3474,162.3373,82.92,75,28,16.96,MH,1731520395
364,oppdal,62.5943,9.6912,36.36,93,97,1.7,NO,1731520396
365,veinticinco de mayo,-35.4323,-60.1727,82.98,32,37,3.0,AR,1731520396
366,yushu,44.8,126.5333,41.16,63,100,9.06,CN,1731520396
367,tucurui,-3.7661,-49.6725,91.69,45,96,3.02,BR,1731520396
368,askoy,60.4092,5.226,46.76,93,75,0.0,NO,1731520396
369,tashtagol,52.7657,87.8894,10.9,93,100,1.52,RU,1731520396
370,xinji,37.9028,115.2036,52.27,96,100,3.31,CN,1731520396
371,el jadid,33.2549,-8.506,66.07,67,100,9.66,MA,1731520396
372,qorovulbozor,39.5006,64.7936,39.65,45,65,14.0,UZ,1731520396
373,thinadhoo,0.5333,72.9333,82.36,77,26,10.51,MV,1731520396
374,poronaysk,49.2167,143.1167,25.83,62,29,7.0,RU,1731520397
375,qaisumah,28.3112,46.1273,67.96,45,0,4.61,SA,1731520397
376,penzance,50.1186,-5.5371,48.88,76,70,10.2,GB,1731520397
377,guane,22.2025,-84.0875,87.51,59,42,13.44,CU,1731520397
378,paarl,-33.7338,18.9752,65.05,55,0,11.25,ZA,1731520397
379,coro,11.4045,-69.6734,84.07,71,100,10.54,VE,1731520397
380,gobabis,-22.45,18.9667,83.35,10,42,15.43,,1731520397
381,reyes,-14.3167,-67.3833,78.76,65,75,0.0,BO,1731520397
382,beacon square,28.2086,-82.7554,86.14,63,4,7.0,US,1731520397
383,dwarka,22.2394,68.9678,81.12,64,0,10.92,IN,1731520398
384,guerrero negro,27.9769,-114.0611,72.23,35,0,4.65,MX,1731520320
385,tchintabaraden,15.8969,5.7985,85.6,19,35,8.79,NE,1731520398
386,zhalantun,48.0,122.7167,27.43,57,13,1.88,CN,1731520399
387,vorgashor,67.5833,63.95,-13.72,100,83,5.44,RU,1731520399
388,shchyolkino,45.4291,35.8223,45.34,87,100,8.7,UA,1731520399
389,brandon,27.9378,-82.2859,86.02,67,40,10.36,US,1731520150
390,guankou,28.15,113.6333,67.82,79,1,3.13,CN,1731520400
391,port saint john's,-31.6229,29.5448,65.1,79,87,13.62,ZA,1731520400
392,odacho-oda,35.1833,132.5,54.7,75,18,8.81,JP,1731520401
393,phibun mangsahan,15.2447,105.2291,76.53,85,67,3.24,TH,1731520401
394,karasu,41.071,30.7854,55.58,88,100,5.55,TR,1731520401
395,hpa-an,16.8906,97.6333,74.37,90,2,0.72,MM,1731520401
396,tokat,40.4167,36.5833,44.31,63,100,3.2,TR,1731520401
397,pavlohrad,48.5167,35.8667,38.61,69,100,4.97,UA,1731520403
398,kavieng,-2.5744,150.7967,81.03,78,44,12.3,PG,1731520403
399,antofagasta,-23.65,-70.4,67.28,66,10,8.23,CL,1731520252
400,bengkulu,-3.8004,102.2655,76.93,91,100,3.91,ID,1731520403
401,totness,5.8833,-56.3167,85.57,68,98,11.39,SR,1731520403
402,port-gentil,-0.7193,8.7815,80.56,89,100,9.22,GA,1731520403
403,freetown,8.484,-13.2299,80.96,75,92,5.21,SL,1731520403
404,santa ana de yacuma,-13.75,-65.4333,80.55,47,40,13.8,BO,1731520404
405,masaya sur,16.497,121.7456,73.2,98,100,1.74,PH,1731520404
406,rio grande,-32.035,-52.0986,74.39,47,34,8.14,BR,1731520366
407,kukuna,9.4,-12.6667,82.38,74,98,4.5,SL,1731520407
408,sola,-13.8833,167.55,80.64,82,100,13.29,VU,1731520408
409,derzhavinsk,51.1,66.3167,19.26,86,99,7.05,KZ,1731520408
410,paulista florida,-21.6,-51.2,84.6,45,58,6.31,BR,1731520408
411,higuera de zaragoza,25.95,-109.2833,80.42,26,0,13.65,MX,1731520408
412,antonio enes,-16.2325,39.9086,79.74,84,10,9.86,MZ,1731520408
413,curumani,9.1999,-73.5427,81.19,91,49,2.8,CO,1731520408
414,galliano,29.4422,-90.2992,77.0,88,100,8.05,US,1731520408
415,ar ruways,24.1103,52.7306,80.22,67,0,12.53,AE,1731520408
416,vitorino freire,-4.0667,-45.1667,97.74,31,56,10.25,BR,1731520408
417,zimovniki,47.1483,42.4633,35.37,79,72,9.01,RU,1731520409
418,nabire,-3.3667,135.4833,74.77,93,84,3.2,ID,1731520409
419,cooma,-36.2333,149.1333,51.53,93,91,1.81,AU,1731520409
420,melykut,46.2151,19.381,38.55,68,92,4.12,HU,1731520409
421,remire-montjoly,4.9167,-52.2667,87.84,66,75,13.8,GF,1731520409
422,mansa,29.9833,75.3833,69.42,31,54,3.38,IN,1731520409
423,la'ie,21.6477,-157.9253,76.1,84,70,11.99,US,1731520409
424,aykhal,66.0,111.5,-18.38,100,64,8.41,RU,1731520411
425,ndende,-2.4008,11.3581,76.3,93,97,1.41,GA,1731520411
426,recani,31.2846,-4.2688,71.13,25,67,17.54,MA,1731520411
427,mariinsk,56.2139,87.7472,15.6,78,99,9.4,RU,1731520411
428,dolinsk,47.35,142.8,27.27,66,3,6.91,RU,1731520411
429,kayyerkan,69.3786,87.7439,-9.99,98,100,3.91,RU,1731520411
430,calingasta,-31.3308,-69.4078,89.08,13,12,13.47,AR,1731520411
431,fort bragg,35.139,-79.006,61.68,50,0,4.61,US,1731520400
432,port alfred,-33.5906,26.891,63.18,79,83,1.01,ZA,1731520411
433,makhambet,47.6667,51.5833,31.71,47,63,7.4,KZ,1731520412
434,mount isa,-20.7333,139.5,85.77,21,63,9.22,AU,1731520412
435,elk city,35.412,-99.4043,61.02,44,0,26.46,US,1731520412
436,yendi,9.4427,-0.0099,86.83,32,46,1.74,GH,1731520412
437,almora,29.6167,79.6667,53.29,78,6,0.98,IN,1731520412
438,novyy urgal,51.0736,132.5642,12.42,90,100,3.31,RU,1731520413
439,tsiombe,-25.3,45.4833,76.53,77,77,11.07,MG,1731520413
440,maharaganj,27.1333,83.5667,70.3,56,0,2.19,IN,1731520414
441,uthal,25.8072,66.6219,78.48,66,0,4.27,PK,1731520414
442,cole harbour,44.6724,-63.4751,38.71,57,75,33.38,CA,1731520414
443,tolanaro,-25.0319,46.9987,78.87,89,40,11.5,MG,1731520414
444,port nelson,23.6333,-74.8333,79.02,77,100,24.72,BS,1731520414
445,southbridge,42.0751,-72.0334,46.02,35,0,7.0,US,1731520415
446,oroville east,39.5113,-121.4752,54.36,65,100,10.36,US,1731520416
447,tromso,69.6496,18.957,39.22,81,75,19.57,NO,1731520171
448,ishigaki,24.3448,124.1572,80.73,89,75,12.66,JP,1731520416
449,tselina,46.5338,41.0328,37.85,79,77,9.73,RU,1731520416
450,santo antonio do ica,-3.1022,-67.9397,84.4,74,67,5.61,BR,1731520416
451,dubti,11.7361,41.0853,88.27,29,4,5.84,ET,1731520418
452,planeta rica,8.4147,-75.5883,84.22,68,56,1.99,CO,1731520419
453,sebdou,34.637,-1.3314,65.48,38,77,16.15,DZ,1731520419
454,bahar,34.9072,48.4414,46.56,81,75,2.3,IR,1731520419
455,zhangatas,43.5667,69.75,22.32,58,46,3.96,KZ,1731520419
456,nenjiang,49.1833,125.2167,18.34,94,11,2.53,CN,1731520419
457,stephenville,32.2207,-98.2023,71.73,27,0,16.11,US,1731520419
458,portland,45.5234,-122.6762,52.45,95,100,8.99,US,1731520415
459,las lomitas,-24.7096,-60.593,92.3,14,1,7.25,AR,1731520419
460,sheohar,26.5167,85.3,70.86,56,0,3.2,IN,1731520419
461,meulaboh,4.1363,96.1285,78.55,87,100,3.67,ID,1731520419
462,beyla,8.6833,-8.6333,77.85,65,95,0.69,GN,1731520420
463,dzhalagash,45.0833,64.6667,29.34,63,4,6.93,KZ,1731520420
464,sultanah,24.4926,39.5857,86.45,14,0,4.61,SA,1731520420
465,kirensk,57.7853,108.1119,13.1,88,100,8.55,RU,1731520421
466,minas de marcona,-15.2119,-75.1103,66.99,59,96,8.37,PE,1731520421
467,ta'if,21.2703,40.4158,70.81,32,0,7.58,SA,1731520158
468,champerico,14.3,-91.9167,82.94,73,91,6.62,GT,1731520421
469,miyazaki,31.9111,131.4239,62.55,82,100,8.05,JP,1731520421
470,shagonar,51.5333,92.8,19.35,40,97,3.0,RU,1731520422
471,conception bay south,47.4999,-52.9981,39.74,95,100,31.25,CA,1731520422
472,mahenge,-8.6833,36.7167,74.01,54,25,1.12,TZ,1731520422
473,kolwezi,-10.7148,25.4667,63.61,80,59,3.18,CD,1731520423
474,akureyri,65.6835,-18.0878,46.33,53,20,24.16,IS,1731520423
475,aroma,15.8167,36.1333,83.44,52,0,20.67,SD,1731520423
476,twin falls,42.3505,-114.6445,45.93,33,100,27.63,US,1731520423
477,mancio lima,-7.6142,-72.8958,71.67,100,100,4.61,BR,1731520423
478,fruita,39.1589,-108.729,45.75,49,0,8.05,US,1731520424
479,pokhara,28.2333,83.9833,58.28,76,26,5.1,NP,1731520424
480,ivdel',60.6911,60.4206,16.88,95,100,4.27,RU,1731520424
481,mersa matruh,31.3525,27.2453,68.2,77,0,6.91,EG,1731520424
482,dudinka,69.4058,86.1778,-13.7,98,99,5.57,RU,1731520424
483,pimentel,-6.8367,-79.9342,77.29,61,0,9.22,PE,1731520424
484,passagem franca,-6.1797,-43.7836,93.22,37,58,4.45,BR,1731520424
485,huanren,41.2647,125.3667,45.07,83,100,2.84,CN,1731520424
486,taroa,8.7058,171.2275,82.29,79,100,15.26,MH,1731520424
487,taybad,34.74,60.7756,42.26,71,100,19.71,IR,1731520425
488,kirakira,-10.4544,161.9205,79.03,85,96,2.44,SB,1731520425
489,hotan,37.0997,79.9269,51.75,35,99,3.8,CN,1731520425
490,shenjiamen,29.9576,122.298,68.22,85,62,8.37,CN,1731520425
491,chul'man,56.8479,124.9104,7.84,96,100,1.28,RU,1731520425
492,hadibu,12.65,54.0333,78.51,62,5,9.89,YE,1731520425
493,ponoka,52.6768,-113.5815,36.91,51,78,9.86,CA,1731520425
494,sinjai,-5.1241,120.253,76.62,87,50,2.17,ID,1731520425
495,borgarnes,64.5383,-21.9206,42.31,91,72,8.48,IS,1731520426
496,inhambane,-23.865,35.3833,75.7,84,99,12.19,MZ,1731520426
497,hurricane,37.1753,-113.2899,52.48,35,15,7.0,US,1731520271
498,banes,20.9625,-75.7186,84.78,69,100,9.31,CU,1731520426
499,miquelon,47.0975,-56.3814,39.72,75,100,41.7,PM,1731520427
500,shalqar,47.8333,59.6,29.68,67,73,10.04,KZ,1731520427
501,marsh harbour,26.5412,-77.0636,77.14,65,80,23.96,BS,1731520427
502,nicoya,10.1483,-85.452,74.26,95,100,2.75,CR,1731520427
503,bamboo flat,11.7,92.7167,82.49,83,40,2.3,IN,1731520428
504,funadhoo,6.15,73.2667,82.65,71,25,6.87,MV,1731520428
505,ujae,8.9322,165.7642,84.15,67,29,17.76,MH,1731520428
506,mpulungu,-8.7623,31.1141,78.94,58,49,2.33,ZM,1731520428
507,korla,41.7597,86.1469,47.21,51,88,6.04,CN,1731520428
508,cidade velha,14.9167,-23.6167,84.67,39,20,12.66,CV,1731520428
509,mahebourg,-20.4081,57.7,77.29,83,75,4.61,MU,1731520428
510,arno,60.1167,18.6333,41.36,92,43,9.37,SE,1731520428
511,huarmey,-10.0681,-78.1522,71.67,70,84,9.55,PE,1731520428
512,juazeirinho,-6.8167,-38.05,98.73,24,8,6.96,BR,1731520428
513,clearwater,27.9659,-82.8001,86.09,61,0,18.01,US,1731520402
514,vostochnyy,55.8167,37.8667,34.09,100,100,7.09,RU,1731520429
515,kenai,60.5544,-151.2583,3.25,92,0,5.75,US,1731520430
516,al ghayzah,16.2079,52.176,80.26,54,10,7.38,YE,1731520430
517,badiyah,22.45,58.8,75.49,63,6,8.88,OM,1731520430
518,beberibe,-4.1797,-38.1306,84.69,57,23,12.62,BR,1731520430
519,hilo,19.7297,-155.09,71.33,96,100,9.22,US,1731520431
520,muravlenko,63.7898,74.523,-9.06,99,94,7.72,RU,1731520431
521,den burg,53.0542,4.7972,53.58,82,75,9.22,NL,1731520431
522,al majaridah,19.1236,41.9111,81.5,69,0,2.91,SA,1731520431
523,sechura,-5.5569,-80.8222,77.41,56,53,13.91,PE,1731520431
524,moussoro,13.6408,16.4901,87.42,12,7,14.38,TD,1731520431
525,bardai,11.65,7.2333,77.76,32,6,8.43,NG,1731520431
526,igra,57.5558,53.0547,23.77,96,96,8.14,RU,1731520432
527,brisas de zicatela,15.8369,-97.0419,83.75,68,63,7.07,MX,1731520432
528,kingston,17.997,-76.7936,85.15,74,20,10.36,JM,1731520156
529,bushehr,28.9684,50.8385,78.89,61,0,9.22,IR,1731520432
530,geraldton,-28.7667,114.6,64.81,82,74,8.05,AU,1731520432
531,la banda,-27.7335,-64.2428,91.49,17,0,10.85,AR,1731520432
532,palmer,42.1584,-72.3287,47.14,30,0,11.5,US,1731520432
533,napier,-39.4833,176.9167,60.28,83,60,5.01,NZ,1731520432
534,vikulovo,56.8167,70.6107,1.58,98,93,5.48,RU,1731520432
535,funafuti,-8.5243,179.1942,86.0,84,20,9.22,TV,1731520434
536,kiama,-34.6833,150.8667,64.38,88,89,1.99,AU,1731520434
537,rio do sul,-27.2142,-49.6431,78.35,28,1,3.74,BR,1731520366
538,hlukhiv,51.6782,33.9162,32.76,79,100,4.52,UA,1731520434
539,kailua-kona,19.6406,-155.9956,73.56,78,40,5.75,US,1731520434
540,al bawiti,28.3492,28.8659,66.07,45,83,10.4,EG,1731520434
541,qarauyl,48.9451,79.255,14.11,55,71,14.99,KZ,1731520434
542,leon,21.1167,-101.6667,78.91,24,23,1.5,MX,1731520370
543,kamba,11.8486,3.6576,86.31,27,10,7.29,NG,1731520435
544,strathmore,51.0501,-113.3852,39.33,65,95,10.36,CA,1731520435
545,aral,40.5156,81.2636,48.06,50,87,6.04,CN,1731520435
546,cuenca,-2.8833,-78.9833,73.53,18,100,3.44,EC,1731520374
547,el calafate,-50.3408,-72.2768,54.0,46,1,14.23,AR,1731520321
548,guymon,36.6828,-101.4816,53.6,47,0,25.32,US,1731520435
549,escaudain,50.3331,3.3443,48.78,84,97,4.25,FR,1731520435
550,ballina,-28.8667,153.5667,65.82,89,41,4.5,AU,1731520435
551,jayapura,-2.5333,140.7,76.39,90,100,3.94,ID,1731520436
552,daru,-9.0763,143.2092,80.06,86,98,14.07,PG,1731520436
553,aginskoye,51.1,114.53,11.17,75,32,11.79,RU,1731520436
554,oranjemund,-28.55,16.4333,61.32,77,37,19.57,,1731520436
555,kayenta,36.7278,-110.2546,42.91,27,15,2.13,US,1731520436
